[
  {
    "id": "NEWYORK-1",
    "title": "New York",
    "description": "The New York office (Empire Tower)",
    "link": "empty",
    "image_link": "empty",
    "radius": 100,
    "categories": [
      "New York",
      "United States"
    ],
    "address1": "123 Broadway",
    "address2": "",
    "city": "New York",
    "zip": "10001",
    "region": "New York",
    "country": "United States",
    "location_id": "NEWYORK-1",
    "lat": "40.712776",
    "lng": "-74.005974"
  },
  {
    "id": "LOSANGELES-1",
    "title": "Los Angeles",
    "description": "The Los Angeles office",
    "link": "empty",
    "image_link": "empty",
    "radius": 100,
    "categories": [
      "Los Angeles",
      "United States"
    ],
    "address1": "456 Sunset Boulevard",
    "address2": "",
    "city": "Los Angeles",
    "zip": "90001",
    "region": "California",
    "country": "United States",
    "location_id": "LOSANGELES-1",
    "lat": "34.052235",
    "lng": "-118.243683"
  },
  {
    "id": "CHICAGO-1",
    "title": "Chicago",
    "description": "The Chicago office (Windy City Tower)",
    "link": "empty",
    "image_link": "empty",
    "radius": 100,
    "categories": [
      "Chicago",
      "United States"
    ],
    "address1": "789 Michigan Avenue",
    "address2": "",
    "city": "Chicago",
    "zip": "60601",
    "region": "Illinois",
    "country": "United States",
    "location_id": "CHICAGO-1",
    "lat": "41.878113",
    "lng": "-87.629799"
  },
  {
    "id": "HOUSTON-1",
    "title": "Houston",
    "description": "The Houston office",
    "link": "empty",
    "image_link": "empty",
    "radius": 100,
    "categories": [
      "Houston",
      "United States"
    ],
    "address1": "234 Main Street",
    "address2": "",
    "city": "Houston",
    "zip": "77001",
    "region": "Texas",
    "country": "United States",
    "location_id": "HOUSTON-1",
    "lat": "29.760427",
    "lng": "-95.369803"
  },
  {
    "id": "PHOENIX-1",
    "title": "Phoenix",
    "description": "The Phoenix office (Desert Hub)",
    "link": "empty",
    "image_link": "empty",
    "radius": 100,
    "categories": [
      "Phoenix",
      "United States"
    ],
    "address1": "567 Central Avenue",
    "address2": "",
    "city": "Phoenix",
    "zip": "85001",
    "region": "Arizona",
    "country": "United States",
    "location_id": "PHOENIX-1",
    "lat": "33.448457",
    "lng": "-112.074037"
  },
  {
    "id": "PHILADELPHIA-1",
    "title": "Philadelphia",
    "description": "The Philadelphia office",
    "link": "empty",
    "image_link": "empty",
    "radius": 100,
    "categories": [
      "Philadelphia",
      "United States"
    ],
    "address1": "890 Market Street",
    "address2": "",
    "city": "Philadelphia",
    "zip": "19101",
    "region": "Pennsylvania",
    "country": "United States",
    "location_id": "PHILADELPHIA-1",
    "lat": "39.952584",
    "lng": "-75.165222"
  },
  {
    "id": "SANANTONIO-1",
    "title": "San Antonio",
    "description": "The San Antonio office",
    "link": "empty",
    "image_link": "empty",
    "radius": 100,
    "categories": [
      "San Antonio",
      "United States"
    ],
    "address1": "345 Alamo Plaza",
    "address2": "",
    "city": "San Antonio",
    "zip": "78201",
    "region": "Texas",
    "country": "United States",
    "location_id": "SANANTONIO-1",
    "lat": "29.424122",
    "lng": "-98.493629"
  },
  {
    "id": "SANDIEGO-1",
    "title": "San Diego",
    "description": "The San Diego office (Pacific Coast)",
    "link": "empty",
    "image_link": "empty",
    "radius": 100,
    "categories": [
      "San Diego",
      "United States"
    ],
    "address1": "678 Harbor Drive",
    "address2": "",
    "city": "San Diego",
    "zip": "92101",
    "region": "California",
    "country": "United States",
    "location_id": "SANDIEGO-1",
    "lat": "32.715736",
    "lng": "-117.161087"
  },
  {
    "id": "DALLAS-1",
    "title": "Dallas",
    "description": "The Dallas office",
    "link": "empty",
    "image_link": "empty",
    "radius": 100,
    "categories": [
      "Dallas",
      "United States"
    ],
    "address1": "901 Commerce Street",
    "address2": "",
    "city": "Dallas",
    "zip": "75201",
    "region": "Texas",
    "country": "United States",
    "location_id": "DALLAS-1",
    "lat": "32.776665",
    "lng": "-96.796989"
  },
  {
    "id": "SANJOSE-1",
    "title": "San Jose",
    "description": "The San Jose office (Silicon Valley)",
    "link": "empty",
    "image_link": "empty",
    "radius": 100,
    "categories": [
      "San Jose",
      "United States"
    ],
    "address1": "234 Santa Clara Street",
    "address2": "",
    "city": "San Jose",
    "zip": "95101",
    "region": "California",
    "country": "United States",
    "location_id": "SANJOSE-1",
    "lat": "37.338208",
    "lng": "-121.885638"
  },
  {
    "id": "AUSTIN-1",
    "title": "Austin",
    "description": "The Austin office (Live Music Capital)",
    "link": "empty",
    "image_link": "empty",
    "radius": 100,
    "categories": [
      "Austin",
      "United States"
    ],
    "address1": "567 Congress Avenue",
    "address2": "",
    "city": "Austin",
    "zip": "78701",
    "region": "Texas",
    "country": "United States",
    "location_id": "AUSTIN-1",
    "lat": "30.272771",
    "lng": "-97.740349"
  },
  {
    "id": "JACKSONVILLE-1",
    "title": "Jacksonville",
    "description": "The Jacksonville office",
    "link": "empty",
    "image_link": "empty",
    "radius": 100,
    "categories": [
      "Jacksonville",
      "United States"
    ],
    "address1": "890 Bay Street",
    "address2": "",
    "city": "Jacksonville",
    "zip": "32202",
    "region": "Florida",
    "country": "United States",
    "location_id": "JACKSONVILLE-1",
    "lat": "30.332184",
    "lng": "-81.655651"
  },
  {
    "id": "FORTWORTH-1",
    "title": "Fort Worth",
    "description": "The Fort Worth office",
    "link": "empty",
    "image_link": "empty",
    "radius": 100,
    "categories": [
      "Fort Worth",
      "United States"
    ],
    "address1": "345 Main Street",
    "address2": "",
    "city": "Fort Worth",
    "zip": "76102",
    "region": "Texas",
    "country": "United States",
    "location_id": "FORTWORTH-1",
    "lat": "32.755488",
    "lng": "-97.318069"
  },
  {
    "id": "COLUMBUS-1",
    "title": "Columbus",
    "description": "The Columbus office",
    "link": "empty",
    "image_link": "empty",
    "radius": 100,
    "categories": [
      "Columbus",
      "United States"
    ],
    "address1": "678 State Street",
    "address2": "",
    "city": "Columbus",
    "zip": "43085",
    "region": "Ohio",
    "country": "United States",
    "location_id": "COLUMBUS-1",
    "lat": "39.961176",
    "lng": "-82.998794"
  },
  {
    "id": "INDIANAPOLIS-1",
    "title": "Indianapolis",
    "description": "The Indianapolis office",
    "link": "empty",
    "image_link": "empty",
    "radius": 100,
    "categories": [
      "Indianapolis",
      "United States"
    ],
    "address1": "901 Illinois Street",
    "address2": "",
    "city": "Indianapolis",
    "zip": "46204",
    "region": "Indiana",
    "country": "United States",
    "location_id": "INDIANAPOLIS-1",
    "lat": "39.768403",
    "lng": "-86.158068"
  },
  {
    "id": "CHARLOTTE-1",
    "title": "Charlotte",
    "description": "The Charlotte office (Queen City)",
    "link": "empty",
    "image_link": "empty",
    "radius": 100,
    "categories": [
      "Charlotte",
      "United States"
    ],
    "address1": "234 Tryon Street",
    "address2": "",
    "city": "Charlotte",
    "zip": "28202",
    "region": "North Carolina",
    "country": "United States",
    "location_id": "CHARLOTTE-1",
    "lat": "35.227087",
    "lng": "-80.843127"
  },
  {
    "id": "SEATTLE-1",
    "title": "Seattle",
    "description": "The Seattle office (Emerald City)",
    "link": "empty",
    "image_link": "empty",
    "radius": 100,
    "categories": [
      "Seattle",
      "United States"
    ],
    "address1": "567 Pike Place",
    "address2": "",
    "city": "Seattle",
    "zip": "98101",
    "region": "Washington",
    "country": "United States",
    "location_id": "SEATTLE-1",
    "lat": "47.606209",
    "lng": "-122.332069"
  },
  {
    "id": "DENVER-1",
    "title": "Denver",
    "description": "The Denver office (Mile High City)",
    "link": "empty",
    "image_link": "empty",
    "radius": 100,
    "categories": [
      "Denver",
      "United States"
    ],
    "address1": "890 17th Street",
    "address2": "",
    "city": "Denver",
    "zip": "80202",
    "region": "Colorado",
    "country": "United States",
    "location_id": "DENVER-1",
    "lat": "39.739236",
    "lng": "-104.990251"
  },
  {
    "id": "BOSTON-1",
    "title": "Boston",
    "description": "The Boston office (Cradle of Liberty)",
    "link": "empty",
    "image_link": "empty",
    "radius": 100,
    "categories": [
      "Boston",
      "United States"
    ],
    "address1": "345 Washington Street",
    "address2": "",
    "city": "Boston",
    "zip": "02101",
    "region": "Massachusetts",
    "country": "United States",
    "location_id": "BOSTON-1",
    "lat": "42.358431",
    "lng": "-71.063611"
  },
  {
    "id": "MIAMI-1",
    "title": "Miami",
    "description": "The Miami office (Magic City)",
    "link": "empty",
    "image_link": "empty",
    "radius": 100,
    "categories": [
      "Miami",
      "United States"
    ],
    "address1": "678 Biscayne Boulevard",
    "address2": "",
    "city": "Miami",
    "zip": "33128",
    "region": "Florida",
    "country": "United States",
    "location_id": "MIAMI-1",
    "lat": "25.761681",
    "lng": "-80.191788"
  },
  {
    "id": "LONDON-1",
    "title": "London",
    "description": "The London office (City Hub)",
    "link": "empty",
    "image_link": "empty",
    "radius": 100,
    "categories": [
      "London",
      "United Kingdom"
    ],
    "address1": "123 Threadneedle Street",
    "address2": "",
    "city": "London",
    "zip": "EC1A 1BB",
    "region": "England",
    "country": "United Kingdom",
    "location_id": "LONDON-1",
    "lat": "51.507351",
    "lng": "-0.127758"
  },
  {
    "id": "PARIS-1",
    "title": "Paris",
    "description": "The Paris office (City of Light)",
    "link": "empty",
    "image_link": "empty",
    "radius": 100,
    "categories": [
      "Paris",
      "France"
    ],
    "address1": "456 Rue de Rivoli",
    "address2": "",
    "city": "Paris",
    "zip": "75001",
    "region": "\u00cele-de-France",
    "country": "France",
    "location_id": "PARIS-1",
    "lat": "48.856614",
    "lng": "2.352222"
  },
  {
    "id": "BERLIN-1",
    "title": "Berlin",
    "description": "The Berlin office",
    "link": "empty",
    "image_link": "empty",
    "radius": 100,
    "categories": [
      "Berlin",
      "Germany"
    ],
    "address1": "789 Unter den Linden",
    "address2": "",
    "city": "Berlin",
    "zip": "10115",
    "region": "Berlin",
    "country": "Germany",
    "location_id": "BERLIN-1",
    "lat": "52.520008",
    "lng": "13.404954"
  },
  {
    "id": "MADRID-1",
    "title": "Madrid",
    "description": "The Madrid office",
    "link": "empty",
    "image_link": "empty",
    "radius": 100,
    "categories": [
      "Madrid",
      "Spain"
    ],
    "address1": "234 Gran V\u00eda",
    "address2": "",
    "city": "Madrid",
    "zip": "28001",
    "region": "Community of Madrid",
    "country": "Spain",
    "location_id": "MADRID-1",
    "lat": "40.416775",
    "lng": "-3.703790"
  },
  {
    "id": "ROME-1",
    "title": "Rome",
    "description": "The Rome office (Eternal City)",
    "link": "empty",
    "image_link": "empty",
    "radius": 100,
    "categories": [
      "Rome",
      "Italy"
    ],
    "address1": "567 Via del Corso",
    "address2": "",
    "city": "Rome",
    "zip": "00100",
    "region": "Lazio",
    "country": "Italy",
    "location_id": "ROME-1",
    "lat": "41.902782",
    "lng": "12.496366"
  },
  {
    "id": "AMSTERDAM-1",
    "title": "Amsterdam",
    "description": "The Amsterdam office",
    "link": "empty",
    "image_link": "empty",
    "radius": 100,
    "categories": [
      "Amsterdam",
      "Netherlands"
    ],
    "address1": "890 Damrak",
    "address2": "",
    "city": "Amsterdam",
    "zip": "1011",
    "region": "North Holland",
    "country": "Netherlands",
    "location_id": "AMSTERDAM-1",
    "lat": "52.370216",
    "lng": "4.895168"
  },
  {
    "id": "BRUSSELS-1",
    "title": "Brussels",
    "description": "The Brussels office",
    "link": "empty",
    "image_link": "empty",
    "radius": 100,
    "categories": [
      "Brussels",
      "Belgium"
    ],
    "address1": "345 Grand Place",
    "address2": "",
    "city": "Brussels",
    "zip": "1000",
    "region": "Brussels",
    "country": "Belgium",
    "location_id": "BRUSSELS-1",
    "lat": "50.850346",
    "lng": "4.351721"
  },
  {
    "id": "VIENNA-1",
    "title": "Vienna",
    "description": "The Vienna office",
    "link": "empty",
    "image_link": "empty",
    "radius": 100,
    "categories": [
      "Vienna",
      "Austria"
    ],
    "address1": "678 Michaelerplatz",
    "address2": "",
    "city": "Vienna",
    "zip": "1010",
    "region": "Vienna",
    "country": "Austria",
    "location_id": "VIENNA-1",
    "lat": "48.208176",
    "lng": "16.373819"
  },
  {
    "id": "PRAGUE-1",
    "title": "Prague",
    "description": "The Prague office (City of Spires)",
    "link": "empty",
    "image_link": "empty",
    "radius": 100,
    "categories": [
      "Prague",
      "Czech Republic"
    ],
    "address1": "901 Old Town Square",
    "address2": "",
    "city": "Prague",
    "zip": "110 00",
    "region": "Prague",
    "country": "Czech Republic",
    "location_id": "PRAGUE-1",
    "lat": "50.075539",
    "lng": "14.437800"
  },
  {
    "id": "ZURICH-1",
    "title": "Zurich",
    "description": "The Zurich office",
    "link": "empty",
    "image_link": "empty",
    "radius": 100,
    "categories": [
      "Zurich",
      "Switzerland"
    ],
    "address1": "234 Bahnhofstrasse",
    "address2": "",
    "city": "Zurich",
    "zip": "8001",
    "region": "Zurich",
    "country": "Switzerland",
    "location_id": "ZURICH-1",
    "lat": "47.368650",
    "lng": "8.545594"
  },
  {
    "id": "STOCKHOLM-1",
    "title": "Stockholm",
    "description": "The Stockholm office (Venice of the North)",
    "link": "empty",
    "image_link": "empty",
    "radius": 100,
    "categories": [
      "Stockholm",
      "Sweden"
    ],
    "address1": "567 Gamla Stan",
    "address2": "",
    "city": "Stockholm",
    "zip": "111 23",
    "region": "Stockholm",
    "country": "Sweden",
    "location_id": "STOCKHOLM-1",
    "lat": "59.329323",
    "lng": "18.068581"
  },
  {
    "id": "OSLO-1",
    "title": "Oslo",
    "description": "The Oslo office",
    "link": "empty",
    "image_link": "empty",
    "radius": 100,
    "categories": [
      "Oslo",
      "Norway"
    ],
    "address1": "890 Karl Johans Gate",
    "address2": "",
    "city": "Oslo",
    "zip": "0150",
    "region": "Oslo",
    "country": "Norway",
    "location_id": "OSLO-1",
    "lat": "59.913869",
    "lng": "10.752245"
  },
  {
    "id": "COPENHAGEN-1",
    "title": "Copenhagen",
    "description": "The Copenhagen office (Mermaid City)",
    "link": "empty",
    "image_link": "empty",
    "radius": 100,
    "categories": [
      "Copenhagen",
      "Denmark"
    ],
    "address1": "345 Nyhavn",
    "address2": "",
    "city": "Copenhagen",
    "zip": "1000",
    "region": "Copenhagen",
    "country": "Denmark",
    "location_id": "COPENHAGEN-1",
    "lat": "55.676097",
    "lng": "12.568337"
  },
  {
    "id": "DUBLIN-1",
    "title": "Dublin",
    "description": "The Dublin office (Fair City)",
    "link": "empty",
    "image_link": "empty",
    "radius": 100,
    "categories": [
      "Dublin",
      "Ireland"
    ],
    "address1": "678 O'Connell Street",
    "address2": "",
    "city": "Dublin",
    "zip": "D01",
    "region": "Dublin",
    "country": "Ireland",
    "location_id": "DUBLIN-1",
    "lat": "53.349805",
    "lng": "-6.260310"
  },
  {
    "id": "LISBON-1",
    "title": "Lisbon",
    "description": "The Lisbon office",
    "link": "empty",
    "image_link": "empty",
    "radius": 100,
    "categories": [
      "Lisbon",
      "Portugal"
    ],
    "address1": "901 Rossio Square",
    "address2": "",
    "city": "Lisbon",
    "zip": "1100",
    "region": "Lisbon",
    "country": "Portugal",
    "location_id": "LISBON-1",
    "lat": "38.722252",
    "lng": "-9.139337"
  },
  {
    "id": "BARCELONA-1",
    "title": "Barcelona",
    "description": "The Barcelona office (City of Counts)",
    "link": "empty",
    "image_link": "empty",
    "radius": 100,
    "categories": [
      "Barcelona",
      "Spain"
    ],
    "address1": "234 Passeig de Gr\u00e0cia",
    "address2": "",
    "city": "Barcelona",
    "zip": "08001",
    "region": "Catalonia",
    "country": "Spain",
    "location_id": "BARCELONA-1",
    "lat": "41.385064",
    "lng": "2.173403"
  },
  {
    "id": "MILAN-1",
    "title": "Milan",
    "description": "The Milan office (Fashion Capital)",
    "link": "empty",
    "image_link": "empty",
    "radius": 100,
    "categories": [
      "Milan",
      "Italy"
    ],
    "address1": "567 Via Montenapoleone",
    "address2": "",
    "city": "Milan",
    "zip": "20100",
    "region": "Lombardy",
    "country": "Italy",
    "location_id": "MILAN-1",
    "lat": "45.464664",
    "lng": "9.191109"
  },
  {
    "id": "VENICE-1",
    "title": "Venice",
    "description": "The Venice office (Lagoon City)",
    "link": "empty",
    "image_link": "empty",
    "radius": 100,
    "categories": [
      "Venice",
      "Italy"
    ],
    "address1": "890 Piazza San Marco",
    "address2": "",
    "city": "Venice",
    "zip": "30100",
    "region": "Veneto",
    "country": "Italy",
    "location_id": "VENICE-1",
    "lat": "45.440848",
    "lng": "12.315515"
  },
  {
    "id": "MUNICH-1",
    "title": "Munich",
    "description": "The Munich office (Bavarian Crown)",
    "link": "empty",
    "image_link": "empty",
    "radius": 100,
    "categories": [
      "Munich",
      "Germany"
    ],
    "address1": "345 Marienplatz",
    "address2": "",
    "city": "Munich",
    "zip": "80331",
    "region": "Bavaria",
    "country": "Germany",
    "location_id": "MUNICH-1",
    "lat": "48.135125",
    "lng": "11.581981"
  },
  {
    "id": "HAMBURG-1",
    "title": "Hamburg",
    "description": "The Hamburg office (Gateway to the World)",
    "link": "empty",
    "image_link": "empty",
    "radius": 100,
    "categories": [
      "Hamburg",
      "Germany"
    ],
    "address1": "678 Jungfernstieg",
    "address2": "",
    "city": "Hamburg",
    "zip": "20095",
    "region": "Hamburg",
    "country": "Germany",
    "location_id": "HAMBURG-1",
    "lat": "53.551086",
    "lng": "9.993682"
  },
  {
    "id": "TOKYO-1",
    "title": "Tokyo",
    "description": "The Tokyo office (Neon Metropolis)",
    "link": "empty",
    "image_link": "empty",
    "radius": 100,
    "categories": [
      "Tokyo",
      "Japan"
    ],
    "address1": "123 Chiyoda",
    "address2": "",
    "city": "Tokyo",
    "zip": "100-0001",
    "region": "Tokyo",
    "country": "Japan",
    "location_id": "TOKYO-1",
    "lat": "35.676592",
    "lng": "139.650113"
  },
  {
    "id": "BEIJING-1",
    "title": "Beijing",
    "description": "The Beijing office",
    "link": "empty",
    "image_link": "empty",
    "radius": 100,
    "categories": [
      "Beijing",
      "China"
    ],
    "address1": "456 Changan Avenue",
    "address2": "",
    "city": "Beijing",
    "zip": "100000",
    "region": "Beijing",
    "country": "China",
    "location_id": "BEIJING-1",
    "lat": "39.904030",
    "lng": "116.407526"
  },
  {
    "id": "SHANGHAI-1",
    "title": "Shanghai",
    "description": "The Shanghai office (Pearl of the Orient)",
    "link": "empty",
    "image_link": "empty",
    "radius": 100,
    "categories": [
      "Shanghai",
      "China"
    ],
    "address1": "789 Nanjing Road",
    "address2": "",
    "city": "Shanghai",
    "zip": "200001",
    "region": "Shanghai",
    "country": "China",
    "location_id": "SHANGHAI-1",
    "lat": "31.230416",
    "lng": "121.473701"
  },
  {
    "id": "HONGKONG-1",
    "title": "Hong Kong",
    "description": "The Hong Kong office (Fragrant Harbor)",
    "link": "empty",
    "image_link": "empty",
    "radius": 100,
    "categories": [
      "Hong Kong",
      "Hong Kong"
    ],
    "address1": "234 Central",
    "address2": "",
    "city": "Hong Kong",
    "zip": "00000",
    "region": "Hong Kong",
    "country": "Hong Kong",
    "location_id": "HONGKONG-1",
    "lat": "22.302711",
    "lng": "114.177109"
  },
  {
    "id": "SINGAPORE-1",
    "title": "Singapore",
    "description": "The Singapore office (Lion City)",
    "link": "empty",
    "image_link": "empty",
    "radius": 100,
    "categories": [
      "Singapore",
      "Singapore"
    ],
    "address1": "567 Raffles Place",
    "address2": "",
    "city": "Singapore",
    "zip": "018956",
    "region": "Singapore",
    "country": "Singapore",
    "location_id": "SINGAPORE-1",
    "lat": "1.352083",
    "lng": "103.819836"
  },
  {
    "id": "BANGKOK-1",
    "title": "Bangkok",
    "description": "The Bangkok office (City of Angels)",
    "link": "empty",
    "image_link": "empty",
    "radius": 100,
    "categories": [
      "Bangkok",
      "Thailand"
    ],
    "address1": "890 Silom Road",
    "address2": "",
    "city": "Bangkok",
    "zip": "10100",
    "region": "Bangkok",
    "country": "Thailand",
    "location_id": "BANGKOK-1",
    "lat": "13.756331",
    "lng": "100.501762"
  },
  {
    "id": "MUMBAI-1",
    "title": "Mumbai",
    "description": "The Mumbai office (Bollywood Hub)",
    "link": "empty",
    "image_link": "empty",
    "radius": 100,
    "categories": [
      "Mumbai",
      "India"
    ],
    "address1": "345 Marine Drive",
    "address2": "",
    "city": "Mumbai",
    "zip": "400001",
    "region": "Maharashtra",
    "country": "India",
    "location_id": "MUMBAI-1",
    "lat": "19.075984",
    "lng": "72.877656"
  },
  {
    "id": "DELHI-1",
    "title": "Delhi",
    "description": "The Delhi office",
    "link": "empty",
    "image_link": "empty",
    "radius": 100,
    "categories": [
      "Delhi",
      "India"
    ],
    "address1": "678 Rajpath",
    "address2": "",
    "city": "Delhi",
    "zip": "110001",
    "region": "Delhi",
    "country": "India",
    "location_id": "DELHI-1",
    "lat": "28.704060",
    "lng": "77.102493"
  },
  {
    "id": "BANGALORE-1",
    "title": "Bangalore",
    "description": "The Bangalore office (Silicon City of India)",
    "link": "empty",
    "image_link": "empty",
    "radius": 100,
    "categories": [
      "Bangalore",
      "India"
    ],
    "address1": "901 MG Road",
    "address2": "",
    "city": "Bangalore",
    "zip": "560001",
    "region": "Karnataka",
    "country": "India",
    "location_id": "BANGALORE-1",
    "lat": "12.971599",
    "lng": "77.594566"
  },
  {
    "id": "SEOUL-1",
    "title": "Seoul",
    "description": "The Seoul office (Dynamic City)",
    "link": "empty",
    "image_link": "empty",
    "radius": 100,
    "categories": [
      "Seoul",
      "South Korea"
    ],
    "address1": "234 Gangnam",
    "address2": "",
    "city": "Seoul",
    "zip": "03161",
    "region": "Seoul",
    "country": "South Korea",
    "location_id": "SEOUL-1",
    "lat": "37.566535",
    "lng": "126.977829"
  },
  {
    "id": "PHUKET-1",
    "title": "Phuket",
    "description": "The Phuket office (Pearl of Andaman)",
    "link": "empty",
    "image_link": "empty",
    "radius": 100,
    "categories": [
      "Phuket",
      "Thailand"
    ],
    "address1": "567 Sukhumvit Road",
    "address2": "",
    "city": "Phuket",
    "zip": "83000",
    "region": "Phuket",
    "country": "Thailand",
    "location_id": "PHUKET-1",
    "lat": "7.881144",
    "lng": "98.398519"
  },
  {
    "id": "JAKARTA-1",
    "title": "Jakarta",
    "description": "The Jakarta office (Thousand Islands)",
    "link": "empty",
    "image_link": "empty",
    "radius": 100,
    "categories": [
      "Jakarta",
      "Indonesia"
    ],
    "address1": "890 Jalan Sudirman",
    "address2": "",
    "city": "Jakarta",
    "zip": "12190",
    "region": "Jakarta",
    "country": "Indonesia",
    "location_id": "JAKARTA-1",
    "lat": "-6.200000",
    "lng": "106.816666"
  },
  {
    "id": "MANILA-1",
    "title": "Manila",
    "description": "The Manila office (Pearl of the Orient Seas)",
    "link": "empty",
    "image_link": "empty",
    "radius": 100,
    "categories": [
      "Manila",
      "Philippines"
    ],
    "address1": "345 Roxas Boulevard",
    "address2": "",
    "city": "Manila",
    "zip": "1000",
    "region": "Manila",
    "country": "Philippines",
    "location_id": "MANILA-1",
    "lat": "14.599512",
    "lng": "120.984222"
  },
  {
    "id": "KUALALUMPUR-1",
    "title": "Kuala Lumpur",
    "description": "The Kuala Lumpur office (Twin Towers City)",
    "link": "empty",
    "image_link": "empty",
    "radius": 100,
    "categories": [
      "Kuala Lumpur",
      "Malaysia"
    ],
    "address1": "678 Jalan Bukit Bintang",
    "address2": "",
    "city": "Kuala Lumpur",
    "zip": "50050",
    "region": "Kuala Lumpur",
    "country": "Malaysia",
    "location_id": "KUALALUMPUR-1",
    "lat": "3.139003",
    "lng": "101.686855"
  },
  {
    "id": "HANOI-1",
    "title": "Hanoi",
    "description": "The Hanoi office (Rising Dragon)",
    "link": "empty",
    "image_link": "empty",
    "radius": 100,
    "categories": [
      "Hanoi",
      "Vietnam"
    ],
    "address1": "901 Hoan Kiem Lake",
    "address2": "",
    "city": "Hanoi",
    "zip": "100000",
    "region": "Hanoi",
    "country": "Vietnam",
    "location_id": "HANOI-1",
    "lat": "21.028511",
    "lng": "105.804048"
  },
  {
    "id": "HOCHIMINHCITY-1",
    "title": "Ho Chi Minh City",
    "description": "The Ho Chi Minh City office",
    "link": "empty",
    "image_link": "empty",
    "radius": 100,
    "categories": [
      "Ho Chi Minh City",
      "Vietnam"
    ],
    "address1": "234 Dong Khoi Street",
    "address2": "",
    "city": "Ho Chi Minh City",
    "zip": "700000",
    "region": "Ho Chi Minh City",
    "country": "Vietnam",
    "location_id": "HOCHIMINHCITY-1",
    "lat": "10.776889",
    "lng": "106.700981"
  },
  {
    "id": "DUBAI-1",
    "title": "Dubai",
    "description": "The Dubai office (Oasis City)",
    "link": "empty",
    "image_link": "empty",
    "radius": 100,
    "categories": [
      "Dubai",
      "United Arab Emirates"
    ],
    "address1": "567 Sheikh Zayed Road",
    "address2": "",
    "city": "Dubai",
    "zip": "00000",
    "region": "Dubai",
    "country": "United Arab Emirates",
    "location_id": "DUBAI-1",
    "lat": "25.202541",
    "lng": "55.274383"
  },
  {
    "id": "TELAVIV-1",
    "title": "Tel Aviv",
    "description": "The Tel Aviv office (Modern Metropolis)",
    "link": "empty",
    "image_link": "empty",
    "radius": 100,
    "categories": [
      "Tel Aviv",
      "Israel"
    ],
    "address1": "890 Dizengoff Street",
    "address2": "",
    "city": "Tel Aviv",
    "zip": "67134",
    "region": "Tel Aviv",
    "country": "Israel",
    "location_id": "TELAVIV-1",
    "lat": "32.085300",
    "lng": "34.768319"
  },
  {
    "id": "ISTANBUL-1",
    "title": "Istanbul",
    "description": "The Istanbul office (Bosphorus Gem)",
    "link": "empty",
    "image_link": "empty",
    "radius": 100,
    "categories": [
      "Istanbul",
      "Turkey"
    ],
    "address1": "345 Taksim Square",
    "address2": "",
    "city": "Istanbul",
    "zip": "34000",
    "region": "Istanbul",
    "country": "Turkey",
    "location_id": "ISTANBUL-1",
    "lat": "41.008238",
    "lng": "28.978359"
  },
  {
    "id": "KARACHI-1",
    "title": "Karachi",
    "description": "The Karachi office",
    "link": "empty",
    "image_link": "empty",
    "radius": 100,
    "categories": [
      "Karachi",
      "Pakistan"
    ],
    "address1": "678 Saddar",
    "address2": "",
    "city": "Karachi",
    "zip": "75600",
    "region": "Sindh",
    "country": "Pakistan",
    "location_id": "KARACHI-1",
    "lat": "24.861735",
    "lng": "67.001137"
  },
  {
    "id": "S\u00c3OPAULO-1",
    "title": "S\u00e3o Paulo",
    "description": "The S\u00e3o Paulo office (Concrete Jungle)",
    "link": "empty",
    "image_link": "empty",
    "radius": 100,
    "categories": [
      "S\u00e3o Paulo",
      "Brazil"
    ],
    "address1": "123 Avenida Paulista",
    "address2": "",
    "city": "S\u00e3o Paulo",
    "zip": "01310-100",
    "region": "S\u00e3o Paulo",
    "country": "Brazil",
    "location_id": "S\u00c3OPAULO-1",
    "lat": "-23.550520",
    "lng": "-46.633309"
  },
  {
    "id": "RIODEJANEIRO-1",
    "title": "Rio de Janeiro",
    "description": "The Rio de Janeiro office (Marvelous City)",
    "link": "empty",
    "image_link": "empty",
    "radius": 100,
    "categories": [
      "Rio de Janeiro",
      "Brazil"
    ],
    "address1": "456 Copacabana Beach",
    "address2": "",
    "city": "Rio de Janeiro",
    "zip": "20040020",
    "region": "Rio de Janeiro",
    "country": "Brazil",
    "location_id": "RIODEJANEIRO-1",
    "lat": "-22.902876",
    "lng": "-43.209393"
  },
  {
    "id": "BUENOSAIRES-1",
    "title": "Buenos Aires",
    "description": "The Buenos Aires office (Paris of South America)",
    "link": "empty",
    "image_link": "empty",
    "radius": 100,
    "categories": [
      "Buenos Aires",
      "Argentina"
    ],
    "address1": "789 Avenida 9 de Julio",
    "address2": "",
    "city": "Buenos Aires",
    "zip": "C1000",
    "region": "Buenos Aires",
    "country": "Argentina",
    "location_id": "BUENOSAIRES-1",
    "lat": "-34.603683",
    "lng": "-58.381557"
  },
  {
    "id": "BOGOT\u00c1-1",
    "title": "Bogot\u00e1",
    "description": "The Bogot\u00e1 office",
    "link": "empty",
    "image_link": "empty",
    "radius": 100,
    "categories": [
      "Bogot\u00e1",
      "Colombia"
    ],
    "address1": "234 Carrera Septima",
    "address2": "",
    "city": "Bogot\u00e1",
    "zip": "110111",
    "region": "Cundinamarca",
    "country": "Colombia",
    "location_id": "BOGOT\u00c1-1",
    "lat": "4.710989",
    "lng": "-74.005062"
  },
  {
    "id": "LIMA-1",
    "title": "Lima",
    "description": "The Lima office (City of Kings)",
    "link": "empty",
    "image_link": "empty",
    "radius": 100,
    "categories": [
      "Lima",
      "Peru"
    ],
    "address1": "567 Jir\u00f3n de la Uni\u00f3n",
    "address2": "",
    "city": "Lima",
    "zip": "15001",
    "region": "Lima",
    "country": "Peru",
    "location_id": "LIMA-1",
    "lat": "-12.046374",
    "lng": "-77.042793"
  },
  {
    "id": "CARACAS-1",
    "title": "Caracas",
    "description": "The Caracas office",
    "link": "empty",
    "image_link": "empty",
    "radius": 100,
    "categories": [
      "Caracas",
      "Venezuela"
    ],
    "address1": "890 Avenida Principal",
    "address2": "",
    "city": "Caracas",
    "zip": "1010",
    "region": "Capital District",
    "country": "Venezuela",
    "location_id": "CARACAS-1",
    "lat": "10.488089",
    "lng": "-66.903606"
  },
  {
    "id": "SANTIAGO-1",
    "title": "Santiago",
    "description": "The Santiago office (Andean Capital)",
    "link": "empty",
    "image_link": "empty",
    "radius": 100,
    "categories": [
      "Santiago",
      "Chile"
    ],
    "address1": "345 Avenida Libertador O'Higgins",
    "address2": "",
    "city": "Santiago",
    "zip": "8340000",
    "region": "Santiago",
    "country": "Chile",
    "location_id": "SANTIAGO-1",
    "lat": "-33.437047",
    "lng": "-70.673676"
  },
  {
    "id": "RECIFE-1",
    "title": "Recife",
    "description": "The Recife office (Venice of Brazil)",
    "link": "empty",
    "image_link": "empty",
    "radius": 100,
    "categories": [
      "Recife",
      "Brazil"
    ],
    "address1": "678 Avenida Boa Viagem",
    "address2": "",
    "city": "Recife",
    "zip": "50010000",
    "region": "Pernambuco",
    "country": "Brazil",
    "location_id": "RECIFE-1",
    "lat": "-8.046910",
    "lng": "-34.877000"
  },
  {
    "id": "BRAS\u00cdLIA-1",
    "title": "Bras\u00edlia",
    "description": "The Bras\u00edlia office (Futuristic Capital)",
    "link": "empty",
    "image_link": "empty",
    "radius": 100,
    "categories": [
      "Bras\u00edlia",
      "Brazil"
    ],
    "address1": "901 Esplanade of Ministries",
    "address2": "",
    "city": "Bras\u00edlia",
    "zip": "70000000",
    "region": "Federal District",
    "country": "Brazil",
    "location_id": "BRAS\u00cdLIA-1",
    "lat": "-15.797255",
    "lng": "-47.879385"
  },
  {
    "id": "MEDELL\u00cdN-1",
    "title": "Medell\u00edn",
    "description": "The Medell\u00edn office (City of Eternal Spring)",
    "link": "empty",
    "image_link": "empty",
    "radius": 100,
    "categories": [
      "Medell\u00edn",
      "Colombia"
    ],
    "address1": "234 Plaza Botero",
    "address2": "",
    "city": "Medell\u00edn",
    "zip": "050001",
    "region": "Antioquia",
    "country": "Colombia",
    "location_id": "MEDELL\u00cdN-1",
    "lat": "6.252602",
    "lng": "-75.563897"
  },
  {
    "id": "QUITO-1",
    "title": "Quito",
    "description": "The Quito office",
    "link": "empty",
    "image_link": "empty",
    "radius": 100,
    "categories": [
      "Quito",
      "Ecuador"
    ],
    "address1": "567 Plaza Grande",
    "address2": "",
    "city": "Quito",
    "zip": "170101",
    "region": "Pichincha",
    "country": "Ecuador",
    "location_id": "QUITO-1",
    "lat": "-0.220703",
    "lng": "-78.512391"
  },
  {
    "id": "ASUNCI\u00d3N-1",
    "title": "Asunci\u00f3n",
    "description": "The Asunci\u00f3n office",
    "link": "empty",
    "image_link": "empty",
    "radius": 100,
    "categories": [
      "Asunci\u00f3n",
      "Paraguay"
    ],
    "address1": "890 Calle Palma",
    "address2": "",
    "city": "Asunci\u00f3n",
    "zip": "1001",
    "region": "Asunci\u00f3n",
    "country": "Paraguay",
    "location_id": "ASUNCI\u00d3N-1",
    "lat": "-25.263789",
    "lng": "-57.575593"
  },
  {
    "id": "MONTEGOBAY-1",
    "title": "Montego Bay",
    "description": "The Montego Bay office (Tourism Hub)",
    "link": "empty",
    "image_link": "empty",
    "radius": 100,
    "categories": [
      "Montego Bay",
      "Jamaica"
    ],
    "address1": "345 Hip Strip",
    "address2": "",
    "city": "Montego Bay",
    "zip": "00000",
    "region": "St. James",
    "country": "Jamaica",
    "location_id": "MONTEGOBAY-1",
    "lat": "18.475882",
    "lng": "-77.902905"
  },
  {
    "id": "PORTOFSPAIN-1",
    "title": "Port of Spain",
    "description": "The Port of Spain office",
    "link": "empty",
    "image_link": "empty",
    "radius": 100,
    "categories": [
      "Port of Spain",
      "Trinidad and Tobago"
    ],
    "address1": "678 Frederick Street",
    "address2": "",
    "city": "Port of Spain",
    "zip": "101101",
    "region": "Port of Spain",
    "country": "Trinidad and Tobago",
    "location_id": "PORTOFSPAIN-1",
    "lat": "10.691803",
    "lng": "-61.502551"
  },
  {
    "id": "HAVANA-1",
    "title": "Havana",
    "description": "The Havana office (Colorful Capital)",
    "link": "empty",
    "image_link": "empty",
    "radius": 100,
    "categories": [
      "Havana",
      "Cuba"
    ],
    "address1": "901 El Prado",
    "address2": "",
    "city": "Havana",
    "zip": "10100",
    "region": "La Habana",
    "country": "Cuba",
    "location_id": "HAVANA-1",
    "lat": "23.112330",
    "lng": "-82.366592"
  },
  {
    "id": "MEXICOCITY-1",
    "title": "Mexico City",
    "description": "The Mexico City office (Aztec Metropolis)",
    "link": "empty",
    "image_link": "empty",
    "radius": 100,
    "categories": [
      "Mexico City",
      "Mexico"
    ],
    "address1": "234 Paseo de la Reforma",
    "address2": "",
    "city": "Mexico City",
    "zip": "06500",
    "region": "Mexico City",
    "country": "Mexico",
    "location_id": "MEXICOCITY-1",
    "lat": "19.432608",
    "lng": "-99.133208"
  },
  {
    "id": "CANC\u00daN-1",
    "title": "Canc\u00fan",
    "description": "The Canc\u00fan office (Caribbean Paradise)",
    "link": "empty",
    "image_link": "empty",
    "radius": 100,
    "categories": [
      "Canc\u00fan",
      "Mexico"
    ],
    "address1": "567 Boulevard Kukulcan",
    "address2": "",
    "city": "Canc\u00fan",
    "zip": "77500",
    "region": "Quintana Roo",
    "country": "Mexico",
    "location_id": "CANC\u00daN-1",
    "lat": "21.163192",
    "lng": "-87.132664"
  },
  {
    "id": "GUADALAJARA-1",
    "title": "Guadalajara",
    "description": "The Guadalajara office (Pearl of the West)",
    "link": "empty",
    "image_link": "empty",
    "radius": 100,
    "categories": [
      "Guadalajara",
      "Mexico"
    ],
    "address1": "890 Avenida 16 de Septiembre",
    "address2": "",
    "city": "Guadalajara",
    "zip": "44100",
    "region": "Jalisco",
    "country": "Mexico",
    "location_id": "GUADALAJARA-1",
    "lat": "20.659698",
    "lng": "-103.349293"
  },
  {
    "id": "BARRANQUILLA-1",
    "title": "Barranquilla",
    "description": "The Barranquilla office",
    "link": "empty",
    "image_link": "empty",
    "radius": 100,
    "categories": [
      "Barranquilla",
      "Colombia"
    ],
    "address1": "345 Paseo de Bol\u00edvar",
    "address2": "",
    "city": "Barranquilla",
    "zip": "080001",
    "region": "Atl\u00e1ntico",
    "country": "Colombia",
    "location_id": "BARRANQUILLA-1",
    "lat": "10.963267",
    "lng": "-74.796547"
  },
  {
    "id": "CALI-1",
    "title": "Cali",
    "description": "The Cali office (Salsa Capital)",
    "link": "empty",
    "image_link": "empty",
    "radius": 100,
    "categories": [
      "Cali",
      "Colombia"
    ],
    "address1": "678 Avenida 6ta",
    "address2": "",
    "city": "Cali",
    "zip": "760001",
    "region": "Valle del Cauca",
    "country": "Colombia",
    "location_id": "CALI-1",
    "lat": "3.451110",
    "lng": "-76.532050"
  },
  {
    "id": "LAGOS-1",
    "title": "Lagos",
    "description": "The Lagos office (Economic Hub)",
    "link": "empty",
    "image_link": "empty",
    "radius": 100,
    "categories": [
      "Lagos",
      "Nigeria"
    ],
    "address1": "123 Victoria Island",
    "address2": "",
    "city": "Lagos",
    "zip": "101241",
    "region": "Lagos",
    "country": "Nigeria",
    "location_id": "LAGOS-1",
    "lat": "6.524379",
    "lng": "3.375387"
  },
  {
    "id": "CAIRO-1",
    "title": "Cairo",
    "description": "The Cairo office (City of Pharaohs)",
    "link": "empty",
    "image_link": "empty",
    "radius": 100,
    "categories": [
      "Cairo",
      "Egypt"
    ],
    "address1": "456 Nile Corniche",
    "address2": "",
    "city": "Cairo",
    "zip": "11511",
    "region": "Cairo",
    "country": "Egypt",
    "location_id": "CAIRO-1",
    "lat": "30.033333",
    "lng": "31.233334"
  },
  {
    "id": "JOHANNESBURG-1",
    "title": "Johannesburg",
    "description": "The Johannesburg office (City of Gold)",
    "link": "empty",
    "image_link": "empty",
    "radius": 100,
    "categories": [
      "Johannesburg",
      "South Africa"
    ],
    "address1": "789 Sandton",
    "address2": "",
    "city": "Johannesburg",
    "zip": "2000",
    "region": "Gauteng",
    "country": "South Africa",
    "location_id": "JOHANNESBURG-1",
    "lat": "-26.204103",
    "lng": "28.047305"
  },
  {
    "id": "CAPETOWN-1",
    "title": "Cape Town",
    "description": "The Cape Town office (Mother City)",
    "link": "empty",
    "image_link": "empty",
    "radius": 100,
    "categories": [
      "Cape Town",
      "South Africa"
    ],
    "address1": "234 Waterfront",
    "address2": "",
    "city": "Cape Town",
    "zip": "8001",
    "region": "Western Cape",
    "country": "South Africa",
    "location_id": "CAPETOWN-1",
    "lat": "-33.918861",
    "lng": "18.423734"
  },
  {
    "id": "NAIROBI-1",
    "title": "Nairobi",
    "description": "The Nairobi office (Safari City)",
    "link": "empty",
    "image_link": "empty",
    "radius": 100,
    "categories": [
      "Nairobi",
      "Kenya"
    ],
    "address1": "567 Westlands",
    "address2": "",
    "city": "Nairobi",
    "zip": "00100",
    "region": "Nairobi",
    "country": "Kenya",
    "location_id": "NAIROBI-1",
    "lat": "-1.286389",
    "lng": "36.817223"
  },
  {
    "id": "ACCRA-1",
    "title": "Accra",
    "description": "The Accra office (Gateway to West Africa)",
    "link": "empty",
    "image_link": "empty",
    "radius": 100,
    "categories": [
      "Accra",
      "Ghana"
    ],
    "address1": "890 Osu",
    "address2": "",
    "city": "Accra",
    "zip": "GA-001-0001",
    "region": "Greater Accra",
    "country": "Ghana",
    "location_id": "ACCRA-1",
    "lat": "5.603717",
    "lng": "-0.186964"
  },
  {
    "id": "ADDISABABA-1",
    "title": "Addis Ababa",
    "description": "The Addis Ababa office (Roof of Africa)",
    "link": "empty",
    "image_link": "empty",
    "radius": 100,
    "categories": [
      "Addis Ababa",
      "Ethiopia"
    ],
    "address1": "345 Piazza",
    "address2": "",
    "city": "Addis Ababa",
    "zip": "1000",
    "region": "Addis Ababa",
    "country": "Ethiopia",
    "location_id": "ADDISABABA-1",
    "lat": "9.033333",
    "lng": "38.746667"
  },
  {
    "id": "DARESSALAAM-1",
    "title": "Dar es Salaam",
    "description": "The Dar es Salaam office (Haven of Peace)",
    "link": "empty",
    "image_link": "empty",
    "radius": 100,
    "categories": [
      "Dar es Salaam",
      "Tanzania"
    ],
    "address1": "678 Kivukoni",
    "address2": "",
    "city": "Dar es Salaam",
    "zip": "14116",
    "region": "Dar es Salaam",
    "country": "Tanzania",
    "location_id": "DARESSALAAM-1",
    "lat": "-6.792354",
    "lng": "39.202008"
  },
  {
    "id": "CASABLANCA-1",
    "title": "Casablanca",
    "description": "The Casablanca office (White Pearl)",
    "link": "empty",
    "image_link": "empty",
    "radius": 100,
    "categories": [
      "Casablanca",
      "Morocco"
    ],
    "address1": "901 Hassan II Boulevard",
    "address2": "",
    "city": "Casablanca",
    "zip": "20000",
    "region": "Casablanca-Settat",
    "country": "Morocco",
    "location_id": "CASABLANCA-1",
    "lat": "33.572416",
    "lng": "-7.589844"
  },
  {
    "id": "KAMPALA-1",
    "title": "Kampala",
    "description": "The Kampala office",
    "link": "empty",
    "image_link": "empty",
    "radius": 100,
    "categories": [
      "Kampala",
      "Uganda"
    ],
    "address1": "234 Kampala Road",
    "address2": "",
    "city": "Kampala",
    "zip": "00100",
    "region": "Kampala",
    "country": "Uganda",
    "location_id": "KAMPALA-1",
    "lat": "0.347596",
    "lng": "32.585196"
  },
  {
    "id": "SYDNEY-1",
    "title": "Sydney",
    "description": "The Sydney office (Harbour City)",
    "link": "empty",
    "image_link": "empty",
    "radius": 100,
    "categories": [
      "Sydney",
      "Australia"
    ],
    "address1": "123 George Street",
    "address2": "",
    "city": "Sydney",
    "zip": "2000",
    "region": "New South Wales",
    "country": "Australia",
    "location_id": "SYDNEY-1",
    "lat": "-33.868820",
    "lng": "151.209290"
  },
  {
    "id": "MELBOURNE-1",
    "title": "Melbourne",
    "description": "The Melbourne office (Cultural Capital)",
    "link": "empty",
    "image_link": "empty",
    "radius": 100,
    "categories": [
      "Melbourne",
      "Australia"
    ],
    "address1": "456 Collins Street",
    "address2": "",
    "city": "Melbourne",
    "zip": "3000",
    "region": "Victoria",
    "country": "Australia",
    "location_id": "MELBOURNE-1",
    "lat": "-37.814107",
    "lng": "144.963280"
  },
  {
    "id": "BRISBANE-1",
    "title": "Brisbane",
    "description": "The Brisbane office (Sunshine City)",
    "link": "empty",
    "image_link": "empty",
    "radius": 100,
    "categories": [
      "Brisbane",
      "Australia"
    ],
    "address1": "789 Queen Street",
    "address2": "",
    "city": "Brisbane",
    "zip": "4000",
    "region": "Queensland",
    "country": "Australia",
    "location_id": "BRISBANE-1",
    "lat": "-27.468933",
    "lng": "153.023503"
  },
  {
    "id": "PERTH-1",
    "title": "Perth",
    "description": "The Perth office (Swan City)",
    "link": "empty",
    "image_link": "empty",
    "radius": 100,
    "categories": [
      "Perth",
      "Australia"
    ],
    "address1": "234 St George's Terrace",
    "address2": "",
    "city": "Perth",
    "zip": "6000",
    "region": "Western Australia",
    "country": "Australia",
    "location_id": "PERTH-1",
    "lat": "-31.950527",
    "lng": "115.860457"
  },
  {
    "id": "AUCKLAND-1",
    "title": "Auckland",
    "description": "The Auckland office (City of Sails)",
    "link": "empty",
    "image_link": "empty",
    "radius": 100,
    "categories": [
      "Auckland",
      "New Zealand"
    ],
    "address1": "567 Queen Street",
    "address2": "",
    "city": "Auckland",
    "zip": "1010",
    "region": "Auckland",
    "country": "New Zealand",
    "location_id": "AUCKLAND-1",
    "lat": "-37.008056",
    "lng": "174.791667"
  },
  {
    "id": "ADELAIDE-1",
    "title": "Adelaide",
    "description": "The Adelaide office (Festival City)",
    "link": "empty",
    "image_link": "empty",
    "radius": 100,
    "categories": [
      "Adelaide",
      "Australia"
    ],
    "address1": "890 Rundle Mall",
    "address2": "",
    "city": "Adelaide",
    "zip": "5000",
    "region": "South Australia",
    "country": "Australia",
    "location_id": "ADELAIDE-1",
    "lat": "-34.928633",
    "lng": "138.597953"
  },
  {
    "id": "HOBART-1",
    "title": "Hobart",
    "description": "The Hobart office",
    "link": "empty",
    "image_link": "empty",
    "radius": 100,
    "categories": [
      "Hobart",
      "Australia"
    ],
    "address1": "345 Collins Street",
    "address2": "",
    "city": "Hobart",
    "zip": "7000",
    "region": "Tasmania",
    "country": "Australia",
    "location_id": "HOBART-1",
    "lat": "-42.882138",
    "lng": "147.327194"
  },
  {
    "id": "CANBERRA-1",
    "title": "Canberra",
    "description": "The Canberra office (Planned Capital)",
    "link": "empty",
    "image_link": "empty",
    "radius": 100,
    "categories": [
      "Canberra",
      "Australia"
    ],
    "address1": "678 Commonwealth Avenue",
    "address2": "",
    "city": "Canberra",
    "zip": "2600",
    "region": "Australian Capital Territory",
    "country": "Australia",
    "location_id": "CANBERRA-1",
    "lat": "-35.282807",
    "lng": "149.128999"
  },
  {
    "id": "WELLINGTON-1",
    "title": "Wellington",
    "description": "The Wellington office (Windy City)",
    "link": "empty",
    "image_link": "empty",
    "radius": 100,
    "categories": [
      "Wellington",
      "New Zealand"
    ],
    "address1": "901 Lambton Quay",
    "address2": "",
    "city": "Wellington",
    "zip": "6011",
    "region": "Wellington",
    "country": "New Zealand",
    "location_id": "WELLINGTON-1",
    "lat": "-41.286460",
    "lng": "174.776236"
  },
  {
    "id": "CHRISTCHURCH-1",
    "title": "Christchurch",
    "description": "The Christchurch office (Garden City)",
    "link": "empty",
    "image_link": "empty",
    "radius": 100,
    "categories": [
      "Christchurch",
      "New Zealand"
    ],
    "address1": "234 Cathedral Square",
    "address2": "",
    "city": "Christchurch",
    "zip": "8011",
    "region": "Canterbury",
    "country": "New Zealand",
    "location_id": "CHRISTCHURCH-1",
    "lat": "-43.532054",
    "lng": "172.636362"
  }
]